{
"type": "FeatureCollection",
"crs": { "type": "name", "properties": { "name": "urn:ogc:def:crs:OGC:1.3:CRS84" } },

"features": [
{ "type": "Feature", "properties": { "id": 1, "name": "日本橋", "title": "日本橋", "緯度": 35.683611, "経度": 139.774444, "filename": "01.jpg" }, "geometry": { "type": "Point", "coordinates": [ 139.774444, 35.683611 ] } },
{ "type": "Feature", "properties": { "id": 2, "name": "品川", "title": "品川宿", "緯度": 35.621944, "経度": 139.739167, "filename": "02.jpg" }, "geometry": { "type": "Point", "coordinates": [ 139.739167, 35.621944 ] } },
{ "type": "Feature", "properties": { "id": 3, "name": "川崎", "title": "川崎宿", "緯度": 35.535556, "経度": 139.707778, "filename": "03.jpg" }, "geometry": { "type": "Point", "coordinates": [ 139.707778, 35.535556 ] } },
{ "type": "Feature", "properties": { "id": 4, "name": "神奈川", "title": "神奈川宿", "緯度": 35.472778, "経度": 139.632278, "filename": "04.jpg" }, "geometry": { "type": "Point", "coordinates": [ 139.632278, 35.472778 ] } },
{ "type": "Feature", "properties": { "id": 5, "name": "保土ヶ谷", "title": "程ヶ谷宿", "緯度": 35.444028, "経度": 139.595556, "filename": "05.jpg" }, "geometry": { "type": "Point", "coordinates": [ 139.595556, 35.444028 ] } },
{ "type": "Feature", "properties": { "id": 6, "name": "戸塚", "title": "戸塚宿", "緯度": 35.395028, "経度": 139.529861, "filename": "06.jpg" }, "geometry": { "type": "Point", "coordinates": [ 139.529861, 35.395028 ] } },
{ "type": "Feature", "properties": { "id": 7, "name": "藤沢", "title": "藤沢宿", "緯度": 35.345667, "経度": 139.486306, "filename": "07.jpg" }, "geometry": { "type": "Point", "coordinates": [ 139.486306, 35.345667 ] } },
{ "type": "Feature", "properties": { "id": 8, "name": "平塚", "title": "平塚宿", "緯度": 35.327278, "経度": 139.337806, "filename": "08.jpg" }, "geometry": { "type": "Point", "coordinates": [ 139.337806, 35.327278 ] } },
{ "type": "Feature", "properties": { "id": 9, "name": "大磯", "title": "大磯宿", "緯度": 35.309000, "経度": 139.315306, "filename": "09.jpg" }, "geometry": { "type": "Point", "coordinates": [ 139.315306, 35.309 ] } },
{ "type": "Feature", "properties": { "id": 10, "name": "小田原", "title": "小田原宿", "緯度": 35.248722, "経度": 139.161028, "filename": "10.jpg" }, "geometry": { "type": "Point", "coordinates": [ 139.161028, 35.248722 ] } },
{ "type": "Feature", "properties": { "id": 11, "name": "箱根", "title": "箱根宿", "緯度": 35.190417, "経度": 139.026361, "filename": "11.jpg" }, "geometry": { "type": "Point", "coordinates": [ 139.026361, 35.190417 ] } },
{ "type": "Feature", "properties": { "id": 12, "name": "三島", "title": "三島宿", "緯度": 35.119250, "経度": 138.914472, "filename": "12.jpg" }, "geometry": { "type": "Point", "coordinates": [ 138.914472, 35.11925 ] } },
{ "type": "Feature", "properties": { "id": 13, "name": "沼津", "title": "沼津宿", "緯度": 35.100111, "経度": 138.857417, "filename": "13.jpg" }, "geometry": { "type": "Point", "coordinates": [ 138.857417, 35.100111 ] } },
{ "type": "Feature", "properties": { "id": 14, "name": "原", "title": "原宿", "緯度": 35.125528, "経度": 138.797333, "filename": "14.jpg" }, "geometry": { "type": "Point", "coordinates": [ 138.797333, 35.125528 ] } },
{ "type": "Feature", "properties": { "id": 15, "name": "吉原", "title": "吉原宿", "緯度": 35.162778, "経度": 138.685639, "filename": "15.jpg" }, "geometry": { "type": "Point", "coordinates": [ 138.685639, 35.162778 ] } },
{ "type": "Feature", "properties": { "id": 16, "name": "蒲原", "title": "蒲原宿", "緯度": 35.119972, "経度": 138.605472, "filename": "16.jpg" }, "geometry": { "type": "Point", "coordinates": [ 138.605472, 35.119972 ] } },
{ "type": "Feature", "properties": { "id": 17, "name": "由井", "title": "由比宿", "緯度": 35.107611, "経度": 138.567472, "filename": "17.jpg" }, "geometry": { "type": "Point", "coordinates": [ 138.567472, 35.107611 ] } },
{ "type": "Feature", "properties": { "id": 18, "name": "奥津", "title": "興津宿", "緯度": 35.049833, "経度": 138.519556, "filename": "18.jpg" }, "geometry": { "type": "Point", "coordinates": [ 138.519556, 35.049833 ] } },
{ "type": "Feature", "properties": { "id": 19, "name": "江尻", "title": "江尻宿", "緯度": 35.019889, "経度": 138.480861, "filename": "19.jpg" }, "geometry": { "type": "Point", "coordinates": [ 138.480861, 35.019889 ] } },
{ "type": "Feature", "properties": { "id": 20, "name": "府中", "title": "府中宿", "緯度": 34.974917, "経度": 138.387639, "filename": "20.jpg" }, "geometry": { "type": "Point", "coordinates": [ 138.387639, 34.974917 ] } },
{ "type": "Feature", "properties": { "id": 21, "name": "丸子", "title": "鞠子宿", "緯度": 34.949417, "経度": 138.342444, "filename": "21.jpg" }, "geometry": { "type": "Point", "coordinates": [ 138.342444, 34.949417 ] } },
{ "type": "Feature", "properties": { "id": 22, "name": "岡部", "title": "岡部宿", "緯度": 34.918833, "経度": 138.282667, "filename": "22.jpg" }, "geometry": { "type": "Point", "coordinates": [ 138.282667, 34.918833 ] } },
{ "type": "Feature", "properties": { "id": 23, "name": "藤枝", "title": "藤枝宿", "緯度": 34.869806, "経度": 138.252722, "filename": "23.jpg" }, "geometry": { "type": "Point", "coordinates": [ 138.252722, 34.869806 ] } },
{ "type": "Feature", "properties": { "id": 24, "name": "嶋田", "title": "島田宿", "緯度": 34.832806, "経度": 138.175861, "filename": "24.jpg" }, "geometry": { "type": "Point", "coordinates": [ 138.175861, 34.832806 ] } },
{ "type": "Feature", "properties": { "id": 25, "name": "金谷", "title": "金谷宿", "緯度": 34.822861, "経度": 138.129278, "filename": "25.jpg" }, "geometry": { "type": "Point", "coordinates": [ 138.129278, 34.822861 ] } },
{ "type": "Feature", "properties": { "id": 26, "name": "日坂", "title": "日坂宿", "緯度": 34.804139, "経度": 138.075361, "filename": "26.jpg" }, "geometry": { "type": "Point", "coordinates": [ 138.075361, 34.804139 ] } },
{ "type": "Feature", "properties": { "id": 27, "name": "掛川", "title": "掛川宿", "緯度": 34.772917, "経度": 138.015889, "filename": "27.jpg" }, "geometry": { "type": "Point", "coordinates": [ 138.015889, 34.772917 ] } },
{ "type": "Feature", "properties": { "id": 28, "name": "袋井", "title": "袋井宿", "緯度": 34.747472, "経度": 137.923222, "filename": "28.jpg" }, "geometry": { "type": "Point", "coordinates": [ 137.923222, 34.747472 ] } },
{ "type": "Feature", "properties": { "id": 29, "name": "見附", "title": "見付宿", "緯度": 34.726806, "経度": 137.857028, "filename": "29.jpg" }, "geometry": { "type": "Point", "coordinates": [ 137.857028, 34.726806 ] } },
{ "type": "Feature", "properties": { "id": 30, "name": "浜松", "title": "浜松宿", "緯度": 34.705111, "経度": 137.731917, "filename": "30.jpg" }, "geometry": { "type": "Point", "coordinates": [ 137.731917, 34.705111 ] } },
{ "type": "Feature", "properties": { "id": 31, "name": "舞坂", "title": "舞坂宿", "緯度": 34.684389, "経度": 137.608944, "filename": "31.jpg" }, "geometry": { "type": "Point", "coordinates": [ 137.608944, 34.684389 ] } },
{ "type": "Feature", "properties": { "id": 32, "name": "荒井", "title": "新居宿", "緯度": 34.694139, "経度": 137.560778, "filename": "32.jpg" }, "geometry": { "type": "Point", "coordinates": [ 137.560778, 34.694139 ] } },
{ "type": "Feature", "properties": { "id": 33, "name": "白須賀", "title": "白須賀宿", "緯度": 34.688556, "経度": 137.500833, "filename": "33.jpg" }, "geometry": { "type": "Point", "coordinates": [ 137.500833, 34.688556 ] } },
{ "type": "Feature", "properties": { "id": 34, "name": "二川", "title": "二川宿", "緯度": 34.723056, "経度": 137.464528, "filename": "34.jpg" }, "geometry": { "type": "Point", "coordinates": [ 137.464528, 34.723056 ] } },
{ "type": "Feature", "properties": { "id": 35, "name": "吉田", "title": "吉田宿", "緯度": 34.766772, "経度": 137.390275, "filename": "35.jpg" }, "geometry": { "type": "Point", "coordinates": [ 137.390275, 34.766772 ] } },
{ "type": "Feature", "properties": { "id": 36, "name": "御油", "title": "御油宿", "緯度": 34.844162, "経度": 137.318535, "filename": "36.jpg" }, "geometry": { "type": "Point", "coordinates": [ 137.318535, 34.844162 ] } },
{ "type": "Feature", "properties": { "id": 37, "name": "赤阪", "title": "赤坂宿", "緯度": 34.855722, "経度": 137.308222, "filename": "37.jpg" }, "geometry": { "type": "Point", "coordinates": [ 137.308222, 34.855722 ] } },
{ "type": "Feature", "properties": { "id": 38, "name": "藤川", "title": "藤川宿", "緯度": 34.911056, "経度": 137.222194, "filename": "38.jpg" }, "geometry": { "type": "Point", "coordinates": [ 137.222194, 34.911056 ] } },
{ "type": "Feature", "properties": { "id": 39, "name": "岡崎", "title": "岡崎宿", "緯度": 34.957917, "経度": 137.169194, "filename": "39.jpg" }, "geometry": { "type": "Point", "coordinates": [ 137.169194, 34.957917 ] } },
{ "type": "Feature", "properties": { "id": 40, "name": "池鯉鮒", "title": "池鯉鮒宿", "緯度": 35.008111, "経度": 137.040944, "filename": "40.jpg" }, "geometry": { "type": "Point", "coordinates": [ 137.040944, 35.008111 ] } },
{ "type": "Feature", "properties": { "id": 41, "name": "鳴海", "title": "鳴海宿", "緯度": 35.079667, "経度": 136.949806, "filename": "41.jpg" }, "geometry": { "type": "Point", "coordinates": [ 136.949806, 35.079667 ] } },
{ "type": "Feature", "properties": { "id": 42, "name": "宮", "title": "宮宿", "緯度": 35.120250, "経度": 136.906972, "filename": "42.jpg" }, "geometry": { "type": "Point", "coordinates": [ 136.906972, 35.12025 ] } },
{ "type": "Feature", "properties": { "id": 43, "name": "桑名", "title": "桑名宿", "緯度": 35.068722, "経度": 136.695500, "filename": "43.jpg" }, "geometry": { "type": "Point", "coordinates": [ 136.6955, 35.068722 ] } },
{ "type": "Feature", "properties": { "id": 44, "name": "四日市", "title": "四日市宿", "緯度": 34.969528, "経度": 136.625278, "filename": "44.jpg" }, "geometry": { "type": "Point", "coordinates": [ 136.625278, 34.969528 ] } },
{ "type": "Feature", "properties": { "id": 45, "name": "石薬師", "title": "石薬師宿", "緯度": 34.904333, "経度": 136.548000, "filename": "45.jpg" }, "geometry": { "type": "Point", "coordinates": [ 136.548, 34.904333 ] } },
{ "type": "Feature", "properties": { "id": 46, "name": "庄野", "title": "庄野宿", "緯度": 34.883389, "経度": 136.524833, "filename": "46.jpg" }, "geometry": { "type": "Point", "coordinates": [ 136.524833, 34.883389 ] } },
{ "type": "Feature", "properties": { "id": 47, "name": "亀山", "title": "亀山宿", "緯度": 34.854306, "経度": 136.454111, "filename": "47.jpg" }, "geometry": { "type": "Point", "coordinates": [ 136.454111, 34.854306 ] } },
{ "type": "Feature", "properties": { "id": 48, "name": "関", "title": "関宿", "緯度": 34.852472, "経度": 136.392083, "filename": "48.jpg" }, "geometry": { "type": "Point", "coordinates": [ 136.392083, 34.852472 ] } },
{ "type": "Feature", "properties": { "id": 49, "name": "阪の下", "title": "坂下宿", "緯度": 34.888556, "経度": 136.354083, "filename": "49.jpg" }, "geometry": { "type": "Point", "coordinates": [ 136.354083, 34.888556 ] } },
{ "type": "Feature", "properties": { "id": 50, "name": "土山", "title": "土山宿", "緯度": 34.934417, "経度": 136.283833, "filename": "50.jpg" }, "geometry": { "type": "Point", "coordinates": [ 136.283833, 34.934417 ] } },
{ "type": "Feature", "properties": { "id": 51, "name": "水口", "title": "水口宿", "緯度": 34.965556, "経度": 136.183500, "filename": "51.jpg" }, "geometry": { "type": "Point", "coordinates": [ 136.1835, 34.965556 ] } },
{ "type": "Feature", "properties": { "id": 52, "name": "石部", "title": "石部宿", "緯度": 35.010056, "経度": 136.054639, "filename": "52.jpg" }, "geometry": { "type": "Point", "coordinates": [ 136.054639, 35.010056 ] } },
{ "type": "Feature", "properties": { "id": 53, "name": "草津", "title": "草津宿", "緯度": 35.017444, "経度": 135.960639, "filename": "53.jpg" }, "geometry": { "type": "Point", "coordinates": [ 135.960639, 35.017444 ] } },
{ "type": "Feature", "properties": { "id": 54, "name": "大津", "title": "大津宿", "緯度": 35.005972, "経度": 135.861417, "filename": "54.jpg" }, "geometry": { "type": "Point", "coordinates": [ 135.861417, 35.005972 ] } },
{ "type": "Feature", "properties": { "id": 55, "name": "京都", "title": "三条大橋", "緯度": 35.010333, "経度": 135.774361, "filename": "55.jpg" }, "geometry": { "type": "Point", "coordinates": [ 135.774361, 35.010333 ] } }
]
}
